City_ID,City,Lat,Lng,Max Temp,Humidity,Cloudiness,Wind Speed,Country,Date
0,port-aux-francais,-49.35,70.2167,281.28,91,100,17.17,TF,['dt']
1,kristiansund,63.1115,7.732,277.51,87,100,6.17,NO,['dt']
2,codrington,-38.2667,141.9667,290.98,59,87,8.73,AU,['dt']
3,invercargill,-46.4,168.35,288.16,83,100,2.68,NZ,['dt']
4,sinazongwe,-17.2614,27.4618,297.02,87,100,2.02,ZM,['dt']
5,vilyuchinsk,52.9306,158.4028,265.3,85,100,3.24,RU,['dt']
6,waitangi,-43.9535,-176.5597,290.83,96,63,11.43,NZ,['dt']
7,mitsamiouli,-11.3847,43.2844,300.62,83,100,6.74,KM,['dt']
8,ribeira grande,38.5167,-28.7,288.02,87,91,1.79,PT,['dt']
9,port mathurin,-19.6833,63.4167,301.23,75,100,4.24,MU,['dt']
10,petropavlovsk-kamchatsky,53.0452,158.6483,264.48,81,75,5.0,RU,['dt']
11,umea,63.8284,20.2597,264.11,79,75,4.63,SE,['dt']
12,green river,41.5286,-109.4662,265.37,94,74,0.76,US,['dt']
13,grytviken,-54.2811,-36.5092,274.72,81,36,5.21,GS,['dt']
14,avarua,-21.2078,-159.775,300.18,78,75,7.2,CK,['dt']
15,zhaqsy,51.9083,67.3133,256.83,93,100,8.67,KZ,['dt']
16,wailua homesteads,22.0669,-159.378,297.59,54,0,7.72,US,['dt']
17,turpan,42.9333,89.1667,270.92,61,75,0.54,CN,['dt']
18,blackmans bay,-43.0167,147.3167,294.0,44,7,1.34,AU,['dt']
19,constantia,44.1833,28.65,268.54,77,12,4.32,RO,['dt']
20,villa de arista,22.65,-100.8333,296.6,23,100,2.01,MX,['dt']
21,remire-montjoly,4.9167,-52.2667,298.17,94,75,0.0,GF,['dt']
22,adamstown,-25.066,-130.1015,297.25,78,23,7.39,PN,['dt']
23,isafjordur,66.0755,-23.124,270.62,82,87,4.39,IS,['dt']
24,bethel,41.3712,-73.414,279.01,50,100,6.69,US,['dt']
25,rongelap,11.1635,166.8941,299.96,73,68,8.06,MH,['dt']
26,sept-iles,50.2001,-66.3821,265.15,95,100,6.69,CA,['dt']
27,ushuaia,-54.8,-68.3,277.94,87,100,14.4,AR,['dt']
28,taksimo,56.3444,114.8794,243.52,85,60,0.46,RU,['dt']
29,port alfred,-33.5906,26.891,293.25,99,71,2.5,ZA,['dt']
30,longyearbyen,78.2186,15.6401,256.06,71,40,10.8,SJ,['dt']
31,west island,-12.1568,96.8225,300.14,94,18,2.06,CC,['dt']
32,albany,42.6001,-73.9662,276.8,69,31,0.89,US,['dt']
33,ust-nera,64.5667,143.2,227.42,99,71,1.37,RU,['dt']
34,ponta delgada,37.7333,-25.6667,291.59,94,75,10.29,PT,['dt']
35,edinburgh of the seven seas,-37.0676,-12.3116,289.96,75,97,5.45,SH,['dt']
36,puerto natales,-51.7236,-72.4875,279.85,77,98,7.56,CL,['dt']
37,nabire,-3.3667,135.4833,298.8,89,100,0.59,ID,['dt']
38,juneau,58.3019,-134.4197,268.15,95,100,5.14,US,['dt']
39,lebu,-37.6167,-73.65,287.15,79,0,7.06,CL,['dt']
40,thompson,55.7435,-97.8558,247.24,70,75,4.12,CA,['dt']
41,tolanaro,-25.0319,46.9987,299.19,78,20,7.2,MG,['dt']
42,borzya,50.3833,116.5167,241.89,94,9,0.34,RU,['dt']
43,st. john's,47.5649,-52.7093,272.53,87,100,3.13,CA,['dt']
44,talagang,32.9297,72.4158,281.66,36,0,1.22,PK,['dt']
45,san matias,-16.3667,-58.4,299.3,79,95,2.35,BO,['dt']
46,yellowknife,62.456,-114.3525,237.27,88,20,2.57,CA,['dt']
47,hawaiian paradise park,19.5933,-154.9731,297.52,75,100,6.17,US,['dt']
48,iskateley,67.6803,53.1512,260.38,96,100,3.13,RU,['dt']
49,kayyerkan,69.3786,87.7439,237.74,88,64,2.54,RU,['dt']
50,anloga,5.7947,0.8973,300.99,78,68,3.8,GH,['dt']
51,nazaret,32.7036,35.2956,284.62,89,81,3.97,IL,['dt']
52,san patricio,28.017,-97.5169,292.2,57,1,4.2,US,['dt']
53,ozark,37.0209,-93.206,265.53,80,73,1.79,US,['dt']
54,puerto ayora,-0.7393,-90.3518,299.01,92,15,2.24,EC,['dt']
55,santa quiteria,-4.3319,-40.1567,297.74,84,93,1.35,BR,['dt']
56,tura,25.5198,90.2201,284.89,67,15,1.73,IN,['dt']
57,nizhniy odes,63.6445,54.856,258.69,97,100,2.67,RU,['dt']
58,nuuk,64.1835,-51.7216,276.49,87,100,12.35,GL,['dt']
59,blue haven,-33.2108,151.5041,299.81,94,100,4.91,AU,['dt']
60,la passe,45.5549,-0.8967,272.28,77,95,2.77,FR,['dt']
61,iqaluit,63.7506,-68.5145,267.0,86,100,3.6,CA,['dt']
62,utrik,11.2278,169.8474,299.92,70,100,7.86,MH,['dt']
63,georgetown,5.4112,100.3354,299.23,84,20,3.6,MY,['dt']
64,garden city,42.3256,-83.331,271.4,78,100,10.29,US,['dt']
65,arteche,12.2645,125.4048,299.55,82,75,7.56,PH,['dt']
66,east london,-33.0153,27.9116,295.61,91,92,2.43,ZA,['dt']
67,kokpekty,48.75,82.4,262.02,83,93,2.63,KZ,['dt']
68,ankang,32.68,109.0172,282.95,67,58,1.13,CN,['dt']
69,margaret river,-33.95,115.0667,300.64,47,95,3.36,AU,['dt']
70,ozieri,40.586,9.0012,278.33,97,66,2.53,IT,['dt']
71,uturoa,-16.7333,-151.4333,300.97,79,99,7.53,PF,['dt']
72,dongcun,36.7767,121.1597,275.59,84,99,7.66,CN,['dt']
73,colonia,50.9333,6.95,275.91,85,100,4.12,DE,['dt']
74,vorgashor,67.5833,63.95,244.56,96,98,2.23,RU,['dt']
75,igrim,63.1906,64.4162,238.19,100,74,1.02,RU,['dt']
76,tiksi,71.6872,128.8694,238.49,98,88,2.9,RU,['dt']
77,talnakh,69.4865,88.3972,237.26,89,55,2.96,RU,['dt']
78,tamanrasset,22.785,5.5228,282.1,14,0,2.06,DZ,['dt']
79,suva,-18.1416,178.4415,301.86,79,75,3.09,FJ,['dt']
80,damascus,33.5102,36.2913,282.37,82,48,5.89,SY,['dt']
81,borba,-4.3878,-59.5939,297.88,90,100,0.63,BR,['dt']
82,namtsy,62.7161,129.6658,232.84,100,100,0.4,RU,['dt']
83,nemuro,43.3236,145.575,267.98,69,48,4.17,JP,['dt']
84,jamestown,42.097,-79.2353,269.27,87,100,9.83,US,['dt']
85,alvorada,-12.48,-49.1247,298.4,82,90,1.12,BR,['dt']
86,callao,-12.0667,-77.15,298.31,69,0,7.72,PE,['dt']
87,hamilton,39.1834,-84.5333,271.89,74,100,6.26,US,['dt']
88,portland,45.5234,-122.6762,265.84,85,100,10.29,US,['dt']
89,ilulissat,69.2167,-51.1,269.16,86,100,0.51,GL,['dt']
90,bredasdorp,-34.5322,20.0403,292.61,82,94,1.74,ZA,['dt']
91,enewetak,11.3474,162.3373,300.06,75,48,9.46,MH,['dt']
92,jianshui,23.6363,102.8264,283.19,96,23,0.87,CN,['dt']
93,hadibu,12.65,54.0333,297.59,87,17,4.33,YE,['dt']
94,bathsheba,13.2167,-59.5167,299.49,73,20,7.2,BB,['dt']
95,yaren,-0.5472,166.916,301.41,80,98,5.1,NR,['dt']
96,newman,37.3138,-121.0208,282.06,79,100,1.79,US,['dt']
97,barra do garcas,-15.89,-52.2567,300.19,69,81,0.88,BR,['dt']
98,lata,40.1629,-8.3327,288.05,97,100,2.3,PT,['dt']
99,richards bay,-28.783,32.0377,297.78,95,64,2.98,ZA,['dt']
100,danilovka,50.3557,44.1168,243.37,95,7,1.34,RU,['dt']
101,prado,-17.3411,-39.2208,298.69,83,0,4.94,BR,['dt']
102,cabo san lucas,22.8909,-109.9124,296.82,57,0,3.6,MX,['dt']
103,lompoc,34.6391,-120.4579,291.23,69,0,7.6,US,['dt']
104,paragominas,-2.9667,-47.4833,295.4,98,94,1.15,BR,['dt']
105,korla,41.7597,86.1469,268.92,67,97,0.9,CN,['dt']
106,saint-joseph,-21.3667,55.6167,299.36,87,100,6.47,RE,['dt']
107,guerrero negro,27.9769,-114.0611,290.33,59,0,6.52,MX,['dt']
108,whitehorse,60.7161,-135.0538,252.09,74,100,0.0,CA,['dt']
109,newnham,-41.3833,147.1333,293.52,39,11,4.12,AU,['dt']
110,yuzhno-kurilsk,44.0306,145.8556,270.03,68,98,5.32,RU,['dt']
111,visakhapatnam,17.69,83.2093,295.09,100,40,1.03,IN,['dt']
112,alamogordo,32.8995,-105.9603,286.6,26,0,2.06,US,['dt']
113,wangqing,43.3218,129.7634,265.33,70,100,5.36,CN,['dt']
114,papatowai,-46.5619,169.4708,285.27,91,100,1.79,NZ,['dt']
115,nungwi,-5.7265,39.2987,300.67,86,100,6.12,TZ,['dt']
116,new norfolk,-42.7826,147.0587,294.66,32,4,1.14,AU,['dt']
117,hermanus,-34.4187,19.2345,292.04,89,55,1.33,ZA,['dt']
118,waddan,29.1614,16.139,283.96,74,44,4.16,LY,['dt']
119,kuloy,61.0305,42.4925,258.2,80,100,5.09,RU,['dt']
120,kailua-kona,19.6406,-155.9956,299.13,68,40,5.14,US,['dt']
121,sandnessjoen,66.0217,12.6316,273.21,86,75,3.6,NO,['dt']
122,rakops,-21.0167,24.3333,297.78,72,100,3.51,BW,['dt']
123,gustavsberg,59.3268,18.3898,271.47,94,85,2.1,SE,['dt']
124,shitanjing,39.2342,106.3439,265.55,86,2,2.84,CN,['dt']
125,mata-utu,-13.2816,-176.1745,301.84,76,74,2.43,WF,['dt']
126,olonkinbyen,70.9221,-8.7187,261.47,88,100,13.19,SJ,['dt']
127,bandarbeyla,9.4942,50.8122,298.22,84,64,7.84,SO,['dt']
128,san mariano,7.5,126.0,297.47,89,100,2.06,PH,['dt']
129,vernon,50.2581,-119.2691,255.54,57,38,0.45,CA,['dt']
130,chibougamau,49.9168,-74.3659,263.94,86,100,6.69,CA,['dt']
131,porto novo,6.4965,2.6036,302.05,76,100,3.15,BJ,['dt']
132,faro,37.0194,-7.9322,289.8,88,0,3.6,PT,['dt']
133,gargalianoi,37.0667,21.6333,281.12,69,11,2.38,GR,['dt']
134,punta arenas,-53.15,-70.9167,281.21,57,75,12.86,CL,['dt']
135,cadereyta,25.5833,-99.9833,291.97,42,0,2.13,MX,['dt']
136,higuera de zaragoza,25.95,-109.2833,294.11,46,0,5.3,MX,['dt']
137,flin flon,54.7682,-101.865,245.06,76,20,3.6,CA,['dt']
138,naracoorte,-36.9579,140.7383,294.6,39,68,6.74,AU,['dt']
139,weno,7.4515,151.8468,303.12,66,75,6.17,FM,['dt']
140,san felipe,10.3399,-68.7425,295.27,97,20,1.85,VE,['dt']
141,nikfer,37.4054,29.1373,271.52,63,0,2.05,TR,['dt']
142,narsipatnam,17.6667,82.6167,291.96,92,16,1.03,IN,['dt']
143,susuman,62.7833,148.1667,228.14,100,93,0.45,RU,['dt']
144,san antonio de pale,-1.4014,5.6325,299.94,74,93,2.28,GQ,['dt']
145,tofol,5.3248,163.0078,302.03,79,75,7.2,FM,['dt']
146,toamasina,-18.1667,49.3833,297.15,94,40,2.06,MG,['dt']
147,ciudad bolivar,8.1222,-63.5497,303.0,36,14,4.66,VE,['dt']
148,mananjary,-21.2167,48.3333,296.75,81,100,0.89,MG,['dt']
149,le krib,36.328,9.1361,275.99,85,1,1.64,TN,['dt']
150,agropoli,40.3469,14.9966,277.09,70,0,1.38,IT,['dt']
151,muang phonsavan,19.45,103.2167,286.78,96,80,1.3,LA,['dt']
152,coquimbo,-29.9533,-71.3436,291.0,82,0,4.12,CL,['dt']
153,qaqortoq,60.7167,-46.0333,276.54,97,100,6.41,GL,['dt']
154,pekanbaru,0.5333,101.45,297.33,100,20,0.0,ID,['dt']
155,haiku-pauwela,20.9219,-156.3051,296.62,58,40,5.14,US,['dt']
156,port lincoln,-34.7333,135.8667,292.02,67,85,9.67,AU,['dt']
157,quatre cocos,-20.2078,57.7625,300.98,88,100,7.62,MU,['dt']
158,tinajo,29.0788,-13.7081,290.64,34,100,2.57,ES,['dt']
159,ancud,-41.8697,-73.8203,286.74,83,50,4.32,CL,['dt']
160,fort bragg,35.139,-79.006,282.49,52,0,3.09,US,['dt']
161,tahoua,14.8888,5.2692,292.99,9,43,5.16,NE,['dt']
162,shar,49.5886,81.0453,267.87,72,69,9.6,KZ,['dt']
163,kerikeri,-35.2268,173.9474,297.36,60,78,3.53,NZ,['dt']
164,katsuura,35.1333,140.3,278.49,47,0,1.75,JP,['dt']
165,hengchun,22.0042,120.7439,294.32,64,15,8.7,TW,['dt']
166,ulsteinvik,62.3432,5.8487,279.68,87,100,5.36,NO,['dt']
167,port blair,11.6667,92.75,295.17,94,20,0.51,IN,['dt']
168,sirjan,29.452,55.6814,279.74,57,98,2.64,IR,['dt']
169,beau vallon,-20.4189,57.6953,301.05,94,75,6.69,MU,['dt']
170,manakara,-22.1333,48.0167,296.98,83,96,0.23,MG,['dt']
171,sao gabriel da cachoeira,-0.1303,-67.0892,296.46,97,74,0.28,BR,['dt']
172,chonchi,-42.6128,-73.8092,287.71,87,71,2.2,CL,['dt']
173,kruisfontein,-34.0033,24.7314,291.42,80,92,0.39,ZA,['dt']
174,geraldton,-28.7667,114.6,297.38,73,100,5.14,AU,['dt']
175,behompy,-23.2496,43.8557,296.99,90,99,1.4,MG,['dt']
176,papao,-17.75,-149.55,303.97,80,100,8.31,PF,['dt']
177,kapa'a,22.0752,-159.319,298.33,53,0,7.72,US,['dt']
178,gadzhiyevo,69.2551,33.3362,265.88,71,100,7.47,RU,['dt']
179,songea,-10.6833,35.65,291.46,94,100,1.66,TZ,['dt']
180,afaahiti,-17.75,-149.2833,303.08,83,100,7.97,PF,['dt']
181,nagqu,31.5,92.0,263.72,42,91,0.99,CN,['dt']
182,aykhal,66.0,111.5,237.22,100,99,3.19,RU,['dt']
183,roma,43.2128,-75.4557,273.68,75,100,4.63,US,['dt']
184,letterkenny,54.95,-7.7333,278.26,85,98,1.92,IE,['dt']
185,vanimo,-2.6741,141.3028,300.85,84,100,1.05,PG,['dt']
186,huarmey,-10.0681,-78.1522,297.5,77,41,4.66,PE,['dt']
187,namdrik,5.5994,168.1028,301.02,79,88,9.94,MH,['dt']
188,nouadhibou,20.931,-17.0347,293.14,83,100,5.66,MR,['dt']
189,selfoss,63.9331,-20.9971,270.4,76,63,2.89,IS,['dt']
190,zabaykal'sk,49.6333,117.3167,246.54,88,5,3.59,RU,['dt']
191,nantucket,41.2835,-70.0995,281.49,76,0,13.38,US,['dt']
192,dunedin,-45.8742,170.5036,288.04,90,100,1.34,NZ,['dt']
193,aasiaat,68.7098,-52.8699,265.45,78,100,2.7,GL,['dt']
194,el granada,37.5027,-122.4694,288.09,89,100,7.72,US,['dt']
195,twon-brass,4.3151,6.2418,301.32,75,52,4.18,NG,['dt']
196,sinop,41.7711,34.8709,266.36,83,23,3.9,TR,['dt']
197,college,64.8569,-147.8028,250.12,70,75,1.54,US,['dt']
198,santona,43.4439,-3.4576,286.6,78,86,2.04,ES,['dt']
199,sosnytsya,51.5239,32.4999,261.2,95,93,3.72,UA,['dt']
200,vodnyy,63.5046,53.4095,262.27,92,100,3.68,RU,['dt']
201,maun,-19.9833,23.4167,296.13,100,75,2.06,BW,['dt']
202,atafu village,-8.5421,-172.5159,302.4,74,87,4.61,TK,['dt']
203,cullinan,-25.6709,28.5236,291.04,71,73,0.97,ZA,['dt']
204,bakanas,44.8081,76.2772,279.39,74,100,6.1,KZ,['dt']
205,howrah,22.5892,88.3103,284.15,93,0,1.54,IN,['dt']
206,stanley,54.868,-1.6985,274.55,92,20,2.06,GB,['dt']
207,arraial do cabo,-22.9661,-42.0278,300.07,89,75,1.03,BR,['dt']
208,beaupreau,47.2046,-0.987,272.69,71,99,1.88,FR,['dt']
209,vilhena,-12.7406,-60.1458,296.27,100,75,3.09,BR,['dt']
210,tutoia,-2.7619,-42.2744,299.3,80,100,4.49,BR,['dt']
211,aoulef,26.9667,1.0833,287.3,31,25,5.15,DZ,['dt']
212,pudozh,61.8099,36.5345,259.79,94,100,4.92,RU,['dt']
213,east ballina,-28.8667,153.5833,301.37,74,92,7.88,AU,['dt']
214,cururupu,-1.8283,-44.8683,296.23,96,100,1.24,BR,['dt']
215,kodiak,57.79,-152.4072,277.88,100,100,4.12,US,['dt']
216,tynda,55.1667,124.7167,245.82,92,98,2.11,RU,['dt']
217,kolonia,50.9333,6.95,275.91,85,100,4.12,DE,['dt']
218,vadso,70.0744,29.7487,263.24,73,100,8.23,NO,['dt']
219,sur,22.5667,59.5289,293.97,77,2,2.71,OM,['dt']
220,cuencame de ceniceros,24.8711,-103.6964,291.48,14,0,3.24,MX,['dt']
221,rudnichnyy,59.617,52.4703,261.14,91,100,4.17,RU,['dt']
222,dudinka,69.4058,86.1778,237.41,91,77,2.24,RU,['dt']
223,minas de marcona,-15.2119,-75.1103,291.77,78,28,6.09,PE,['dt']
224,levuka,50.1834,-105.4011,239.05,94,92,4.41,CA,['dt']
225,aqsay,51.1678,52.995,247.77,98,35,3.86,KZ,['dt']
226,rio grande,-32.035,-52.0986,296.21,73,2,7.68,BR,['dt']
227,nangen,35.41,127.3858,276.88,70,1,1.02,KR,['dt']
228,ofunato,39.0717,141.7167,275.9,61,30,3.74,JP,['dt']
229,sitka,57.0531,-135.33,272.09,86,100,3.09,US,['dt']
230,san andres,12.5847,-81.7006,301.16,74,20,3.6,CO,['dt']
231,lusaka,-15.4067,28.2871,290.39,99,99,1.83,ZM,['dt']
232,namibe,-15.1961,12.1522,294.44,72,94,2.75,AO,['dt']
233,mili,6.0815,171.735,300.52,77,100,10.95,MH,['dt']
234,sandakan,5.8402,118.1179,300.97,83,40,3.13,MY,['dt']
235,al fuwayliq,26.4432,43.2534,289.77,35,89,3.85,SA,['dt']
236,leon valley,29.4952,-98.6186,291.15,49,20,2.57,US,['dt']
237,port elizabeth,-33.918,25.5701,293.32,90,40,1.54,ZA,['dt']
238,znamenskoye,57.1281,73.8282,267.43,95,100,4.79,RU,['dt']
239,mahuta,-10.8667,39.45,294.18,97,100,1.26,TZ,['dt']
240,nadi,-17.8,177.4167,304.15,70,75,5.14,FJ,['dt']
241,hluti,-27.2167,31.6167,294.38,97,73,0.34,SZ,['dt']
242,christchurch,-43.5333,172.6333,298.94,38,100,3.09,NZ,['dt']
243,lebowakgomo,-24.2,29.5,293.65,70,100,1.55,ZA,['dt']
244,tokar,18.4254,37.729,297.37,75,10,2.31,SD,['dt']
245,daru,-9.0763,143.2092,299.76,85,100,2.94,PG,['dt']
246,ta`u,-14.2336,-169.5144,300.37,81,100,7.58,AS,['dt']
247,yeppoon,-23.1333,150.7333,302.03,77,87,6.19,AU,['dt']
248,makassar,-5.14,119.4221,300.18,94,40,2.06,ID,['dt']
249,oroqen zizhiqi,50.5667,123.7167,255.51,63,21,5.15,CN,['dt']
250,axim,4.8699,-2.2405,299.91,82,2,2.75,GH,['dt']
251,perundurai,11.2667,77.5833,294.42,88,82,0.89,IN,['dt']
252,nova sintra,14.8667,-24.7167,294.82,70,100,8.0,CV,['dt']
253,kapuskasing,49.4169,-82.4331,254.2,78,100,6.69,CA,['dt']
254,khorixas,-20.3667,14.9667,293.11,41,94,2.18,NA,['dt']
255,santa cruz,-17.8,-63.1667,302.18,70,40,5.14,BO,['dt']
256,port moresby,-9.4431,147.1797,301.83,79,40,5.14,PG,['dt']
257,south valley,35.0101,-106.6781,281.92,35,20,4.12,US,['dt']
258,bodo,67.28,14.405,269.23,79,75,5.66,NO,['dt']
259,kimbe,-5.5502,150.1429,303.43,71,100,0.71,PG,['dt']
260,onega,63.9061,38.1404,262.85,95,100,4.37,RU,['dt']
261,misratah,32.3754,15.0925,288.88,52,71,9.65,LY,['dt']
262,maiyama,12.0841,4.3677,294.68,14,99,4.88,NG,['dt']
263,druzhny,53.6238,27.8977,261.29,95,100,4.87,BY,['dt']
264,udachny,66.4167,112.4,239.01,97,99,2.68,RU,['dt']
265,kudahuvadhoo,2.6708,72.8944,300.75,78,41,7.28,MV,['dt']
266,burutu,5.3509,5.5076,300.61,74,68,2.39,NG,['dt']
267,kaya,13.0917,-1.0844,295.73,10,25,3.8,BF,['dt']
268,hammerfest,70.6634,23.6821,267.4,79,75,2.57,NO,['dt']
269,veseloyarsk,51.2836,81.1056,270.73,72,98,10.97,RU,['dt']
270,mabaruma,8.2,-59.7833,296.91,84,10,1.94,GY,['dt']
271,quellon,-43.1167,-73.6167,286.16,88,91,3.16,CL,['dt']
272,kingston,17.997,-76.7936,301.68,77,20,7.2,JM,['dt']
273,bogatyye saby,56.0102,50.4483,256.02,94,99,5.78,RU,['dt']
274,pacocha,-17.5833,-71.3333,294.73,84,50,2.33,PE,['dt']
275,karkira,36.9292,6.5856,283.53,72,6,2.41,DZ,['dt']
276,fort mcmurray,56.7268,-111.381,237.92,68,0,1.03,CA,['dt']
277,mlowo,-9.0,32.9833,288.78,97,100,1.21,TZ,['dt']
278,hami,42.8,93.45,268.52,61,8,1.29,CN,['dt']
279,carnarvon,-24.8667,113.6333,297.01,75,6,6.41,AU,['dt']
280,mirnyy,62.5353,113.9611,254.5,96,100,2.56,RU,['dt']
281,yasuj,30.6682,51.588,276.9,81,40,0.0,IR,['dt']
282,kavieng,-2.5744,150.7967,302.42,72,100,1.85,PG,['dt']
283,saldanha,-33.0117,17.9442,290.18,92,45,3.64,ZA,['dt']
284,junction city,39.0286,-96.8314,253.46,65,0,3.13,US,['dt']
285,galveston,29.3669,-94.9669,289.21,67,0,3.6,US,['dt']
286,beyneu,45.3167,55.2,260.99,84,23,4.71,KZ,['dt']
287,porbandar,21.6422,69.6093,293.03,62,1,4.35,IN,['dt']
288,okhotsk,59.3833,143.3,240.96,82,1,4.37,RU,['dt']
289,brisas de zicatela,15.8369,-97.0419,299.06,85,51,1.49,MX,['dt']
290,floro,61.5996,5.0328,276.46,87,75,8.75,NO,['dt']
291,klyuchi,52.2667,79.1667,268.64,79,95,7.58,RU,['dt']
292,brenham,30.1669,-96.3977,289.03,55,0,2.57,US,['dt']
293,fort st. john,56.2499,-120.8529,241.09,68,20,2.06,CA,['dt']
294,cascais,38.6979,-9.4215,289.78,93,100,7.15,PT,['dt']
295,brezina,33.0989,1.2608,283.76,31,100,2.3,DZ,['dt']
296,lys'va,58.1086,57.8053,243.33,100,99,1.01,RU,['dt']
297,bubaque,11.2833,-15.8333,298.99,80,70,2.63,GW,['dt']
298,bayganin,48.6947,55.8742,250.18,97,96,5.26,KZ,['dt']
299,lihue,21.9789,-159.3672,297.92,53,0,7.72,US,['dt']
300,izhevsk,56.85,53.2333,254.89,86,99,0.45,RU,['dt']
301,karagandy,49.8019,73.1021,274.12,97,98,11.92,KZ,['dt']
302,anadyr,64.75,177.4833,261.43,85,100,5.0,RU,['dt']
303,chyhyryn,49.0838,32.6555,266.85,93,98,5.06,UA,['dt']
304,mount gambier,-37.8333,140.7667,291.75,52,82,6.07,AU,['dt']
305,tibagi,-24.5094,-50.4136,292.99,90,94,1.96,BR,['dt']
306,pangkalanbuun,-2.6833,111.6167,297.88,93,100,1.35,ID,['dt']
307,boali,4.8005,18.1275,297.72,23,100,2.0,CF,['dt']
308,acarau,-2.8856,-40.12,299.0,86,96,4.16,BR,['dt']
309,sidi akkacha,36.4647,1.3026,283.31,58,83,2.23,DZ,['dt']
310,miandrivazo,-19.5167,45.4667,299.36,85,75,0.91,MG,['dt']
311,abepura,-2.6333,140.5833,300.6,83,40,0.51,ID,['dt']
312,murzuq,25.9155,13.9184,283.23,59,3,4.25,LY,['dt']
313,sabang,5.8933,95.3214,300.92,71,65,8.79,ID,['dt']
314,swakopmund,-22.6833,14.5333,291.62,86,32,1.25,NA,['dt']
315,stowbtsy,53.4785,26.7434,263.25,94,100,4.6,BY,['dt']
316,kolwezi,-10.7148,25.4667,289.23,98,100,1.97,CD,['dt']
317,tomino,41.9877,-8.755,287.69,95,100,2.34,ES,['dt']
318,shubarshi,48.5872,57.1869,250.23,94,99,5.65,KZ,['dt']
319,salinas,36.6777,-121.6555,288.46,80,100,3.09,US,['dt']
320,anna regina,7.2644,-58.5077,298.49,78,2,3.53,GY,['dt']
321,bamboo flat,11.7,92.7167,295.2,94,20,0.51,IN,['dt']
322,dhidhdhoo,6.8833,73.1,300.47,76,83,5.21,MV,['dt']
323,saipan,15.1355,145.701,302.54,65,40,7.2,MP,['dt']
324,kone,-21.0595,164.8658,304.37,58,100,1.34,NC,['dt']
325,mount pearl,47.5166,-52.7813,272.07,87,100,2.57,CA,['dt']
326,gouyave,12.1646,-61.7296,298.58,94,40,5.66,GD,['dt']
327,alo,7.4178,6.7371,299.43,25,66,1.55,NG,['dt']
328,outjo,-20.1167,16.15,295.55,37,99,5.63,NA,['dt']
329,alamosa,37.4695,-105.87,269.14,58,0,5.66,US,['dt']
330,mopti,14.6667,-4.0,296.33,9,62,4.6,ML,['dt']
331,sievi,63.9,24.5,266.57,97,100,2.03,FI,['dt']
332,pacific grove,36.6177,-121.9166,287.83,79,100,3.13,US,['dt']
333,port saint john's,-31.6229,29.5448,296.09,96,99,0.92,ZA,['dt']
334,chiang klang,19.2938,100.8617,291.75,93,8,0.6,TH,['dt']
335,istgah-e rah ahan-e garmsar,35.2346,52.3094,284.85,36,96,2.89,IR,['dt']
336,samraong,12.4526,105.5873,293.66,70,88,2.22,KH,['dt']
337,paita,-5.0892,-81.1144,297.14,82,14,6.56,PE,['dt']
338,lazaro cardenas,17.9583,-102.2,298.62,70,76,2.17,MX,['dt']
339,puerto santa,-8.9906,-78.6456,296.64,79,24,3.68,PE,['dt']
340,howard springs,-12.497,131.047,299.19,96,100,7.58,AU,['dt']
341,tasqala,51.1167,50.3167,248.29,95,22,3.56,KZ,['dt']
342,dolores,-36.3132,-57.6792,295.59,55,92,4.09,AR,['dt']
343,katabu,-4.9333,122.5167,300.33,85,98,1.74,ID,['dt']
344,el campello,38.4288,-0.3977,284.5,53,95,2.97,ES,['dt']
345,sangla hill,31.7167,73.3833,281.31,34,0,0.78,PK,['dt']
346,mweka,-4.85,21.5667,294.47,95,98,1.24,CD,['dt']
347,inongo,-1.95,18.2667,298.05,74,95,1.43,CD,['dt']
348,constitucion,-35.3333,-72.4167,287.23,79,3,6.55,CL,['dt']
349,priargunsk,50.3691,119.1012,240.97,90,6,1.76,RU,['dt']
350,sechura,-5.5569,-80.8222,299.44,66,16,8.4,PE,['dt']
351,phan rang-thap cham,11.5667,108.9833,294.5,71,75,3.12,VN,['dt']
352,queenstown,-31.8976,26.8753,291.87,87,88,2.03,ZA,['dt']
353,robertsport,6.7533,-11.3686,300.25,80,1,2.59,LR,['dt']
354,maragogi,-9.0122,-35.2225,299.38,81,20,4.11,BR,['dt']
355,crane,31.3974,-102.3501,288.32,18,51,3.28,US,['dt']
356,pathein,16.7833,94.7333,290.32,92,96,2.5,MM,['dt']
357,kitimat,54.0524,-128.6534,259.21,68,50,2.67,CA,['dt']
358,puerto colombia,10.9878,-74.9547,301.2,85,2,7.88,CO,['dt']
359,fortuna,40.5982,-124.1573,287.0,97,75,6.69,US,['dt']
360,saint-pierre,-21.3393,55.4781,299.97,83,75,1.54,RE,['dt']
361,junin de los andes,-39.9504,-71.0694,286.9,46,0,6.31,AR,['dt']
362,alofi,-19.0595,-169.9187,302.09,70,99,9.26,NU,['dt']
363,malvan,16.0667,73.4667,296.91,71,4,2.42,IN,['dt']
364,zayed city,24.3768,54.589,294.82,62,0,2.06,AE,['dt']
365,lloydminster,53.2835,-110.0016,239.27,75,20,1.54,CA,['dt']
366,fisterra,42.9049,-9.2629,286.9,90,100,8.5,ES,['dt']
367,garachico,28.7781,-17.7646,293.21,83,0,6.69,ES,['dt']
368,perm,58.0174,56.2855,250.06,77,75,6.0,RU,['dt']
369,olyokminsk,60.3736,120.4264,250.29,93,100,1.79,RU,['dt']
370,pisco,-13.7,-76.2167,296.18,83,0,10.29,PE,['dt']
371,bikenibeu village,1.3673,173.1241,298.13,100,100,9.26,KI,['dt']
372,kihangara,-2.5833,33.35,293.21,83,100,1.85,TZ,['dt']
373,akjoujt,19.6969,-14.4164,297.42,9,99,4.85,MR,['dt']
374,kharp,66.8014,65.8081,244.26,99,100,0.97,RU,['dt']
375,farsan,32.2569,50.561,279.17,51,9,3.79,IR,['dt']
376,launceston,-41.45,147.1667,293.79,39,13,4.12,AU,['dt']
377,tabas,33.5959,56.9244,282.27,34,2,2.06,IR,['dt']
378,muromtsevo,56.3724,75.2418,266.89,94,100,5.5,RU,['dt']
379,southside,33.9245,-86.0225,277.57,80,0,0.0,US,['dt']
380,parang,7.3704,124.2697,299.4,73,94,1.64,PH,['dt']
381,xi'an,34.2583,108.9286,273.6,45,63,0.97,CN,['dt']
382,vetlanda,57.4289,15.0776,270.41,88,67,3.51,SE,['dt']
383,hasaki,35.7333,140.8333,274.37,48,1,2.79,JP,['dt']
384,wanning,18.8003,110.3967,294.93,85,95,3.54,CN,['dt']
385,peniche,39.3558,-9.3811,288.46,91,100,7.24,PT,['dt']
386,inirida,3.8653,-67.9239,299.62,77,70,0.98,CO,['dt']
387,pervomayskiy,53.2485,40.2871,245.38,92,5,2.85,RU,['dt']
388,edmundston,47.3737,-68.3251,272.66,89,100,6.17,CA,['dt']
389,boguchany,58.3814,97.4531,258.63,91,94,1.79,RU,['dt']
390,ketchikan,55.3422,-131.6461,268.41,63,100,2.06,US,['dt']
391,peace river,56.2501,-117.286,241.32,68,40,3.09,CA,['dt']
392,kiunga,-6.1219,141.2906,300.21,80,100,1.06,PG,['dt']
393,chinde,26.8418,88.0763,280.88,59,13,1.68,NP,['dt']
394,loreto,22.2667,-101.9667,293.22,12,95,5.85,MX,['dt']
395,berdigestyakh,62.0989,126.6992,234.23,100,82,1.38,RU,['dt']
396,korsakov,46.6328,142.7813,253.06,79,76,1.31,RU,['dt']
397,bullsbrook,-31.6667,116.0,304.66,78,7,3.09,AU,['dt']
398,nuku'alofa,-21.1333,-175.2,301.34,74,75,7.72,TO,['dt']
399,san-pedro,4.7485,-6.6363,299.23,86,0,1.34,CI,['dt']
400,eilat,29.5581,34.9482,290.06,42,1,2.06,IL,['dt']
401,cam ranh,11.9214,109.1591,295.13,78,20,3.09,VN,['dt']
402,oliveira dos brejinhos,-12.3169,-42.8961,298.19,57,78,0.9,BR,['dt']
403,yacuiba,-22.038,-63.6797,300.29,60,38,1.51,BO,['dt']
404,amga,60.8953,131.9608,242.1,100,100,0.83,RU,['dt']
405,miracema do tocantins,-9.5618,-48.3967,297.94,86,99,1.55,BR,['dt']
406,iaciara,-14.0958,-46.6317,297.68,68,44,0.89,BR,['dt']
407,umm kaddadah,13.6017,26.6876,289.71,22,31,5.51,SD,['dt']
408,morehead city,34.7229,-76.726,284.15,50,0,4.63,US,['dt']
409,kuchaiburi,22.2667,86.1667,284.21,35,0,0.84,IN,['dt']
410,drummondville,45.8834,-72.4824,273.17,91,100,1.34,CA,['dt']
411,klaksvik,62.2266,-6.589,273.66,63,100,15.74,FO,['dt']
412,margate,51.3813,1.3862,275.86,88,100,2.24,GB,['dt']
413,saint-philippe,-21.3585,55.7679,299.92,90,100,8.33,RE,['dt']
414,whistler,50.1164,-122.9695,262.99,77,9,2.49,CA,['dt']
415,paradip garh,20.3167,86.6167,289.08,46,0,2.43,IN,['dt']
416,dalby,-27.1833,151.2667,302.38,39,0,4.7,AU,['dt']
417,nar'yan-mar,67.6713,53.087,260.43,96,100,3.13,RU,['dt']
418,kudymkar,59.0173,54.656,254.7,97,98,3.01,RU,['dt']
419,zheshart,62.0731,49.5733,260.36,91,100,4.75,RU,['dt']
420,sinabang,2.4803,96.3801,299.48,79,100,0.05,ID,['dt']
421,tazovsky,67.4667,78.7,234.28,99,84,3.09,RU,['dt']
422,yatou,37.15,122.3833,276.08,96,97,7.26,CN,['dt']
423,shevchenko,48.5,35.0,264.49,88,96,4.37,UA,['dt']
424,shengli,37.4564,118.4856,273.46,61,72,6.64,CN,['dt']
425,semnan,35.5729,53.3971,278.67,51,2,0.52,IR,['dt']
426,watampone,-4.5386,120.3279,300.58,80,97,2.0,ID,['dt']
427,douliu,23.7094,120.5433,291.35,57,9,1.67,TW,['dt']
428,hangal,14.7667,75.1333,294.02,63,48,1.26,IN,['dt']
429,tralee,52.2704,-9.7026,277.33,88,95,0.99,IE,['dt']
430,shchyolkino,45.4291,35.8223,272.35,75,65,5.12,UA,['dt']
431,fellsmere,27.7678,-80.6014,291.14,65,100,0.89,US,['dt']
432,el triunfo,-1.9333,-79.9667,303.17,78,88,1.27,EC,['dt']
433,dubuque,42.4833,-90.8668,257.4,72,100,10.8,US,['dt']
434,ad dilam,23.9915,47.1627,291.38,34,67,4.58,SA,['dt']
435,montepuez,-13.1256,38.9997,294.85,98,100,1.15,MZ,['dt']
436,cooper's town,26.8667,-77.5167,295.71,89,84,7.81,BS,['dt']
437,pingliang,35.5392,106.6861,271.9,54,0,0.93,CN,['dt']
438,opochka,56.7105,28.6617,261.42,88,100,5.38,RU,['dt']
439,kavaratti,10.5669,72.642,300.82,68,21,4.34,IN,['dt']
440,kutum,14.2,24.6667,288.1,20,71,3.63,SD,['dt']
441,mawu,29.5923,107.3139,285.75,79,85,1.08,CN,['dt']
442,chilaw,7.5758,79.7953,296.16,77,97,6.23,LK,['dt']
443,holualoa,19.6228,-155.9522,297.06,68,40,5.14,US,['dt']
444,bardsir,29.9227,56.5743,279.47,25,56,2.28,IR,['dt']
445,hobyo,5.3505,48.5268,298.73,85,13,7.59,SO,['dt']
446,chizhou,30.6578,117.4831,283.85,62,9,0.74,CN,['dt']
447,korsholm,63.1142,21.6822,269.39,93,100,4.92,FI,['dt']
448,mollendo,-17.0231,-72.0147,295.23,82,68,3.76,PE,['dt']
449,cavalaire-sur-mer,43.174,6.5272,276.55,76,7,3.98,FR,['dt']
450,prince rupert,54.3161,-130.3201,267.62,45,74,2.03,CA,['dt']
451,northam,51.0333,-4.2167,275.18,94,36,1.91,GB,['dt']
452,port-vila,-17.7338,168.3219,301.93,84,100,1.54,VU,['dt']
453,broome,42.2506,-75.833,273.09,68,100,9.77,US,['dt']
454,vilyuysk,63.7553,121.6247,246.27,99,99,1.49,RU,['dt']
455,taoudenni,22.6783,-3.9836,291.51,16,45,5.5,ML,['dt']
456,ballesteros,18.4126,121.5152,295.43,76,98,5.75,PH,['dt']
457,pandan,14.0453,124.1694,298.46,81,96,8.55,PH,['dt']
458,baruun-urt,46.6806,113.2792,246.49,94,4,3.43,MN,['dt']
459,road town,18.4167,-64.6167,300.17,74,20,3.6,VG,['dt']
460,san clemente del tuyu,-36.3569,-56.7235,295.36,77,53,9.07,AR,['dt']
461,westport,41.1415,-73.3579,279.71,48,100,6.71,US,['dt']
462,natal,-5.795,-35.2094,299.34,80,99,3.16,BR,['dt']
463,mount isa,-20.7333,139.5,303.02,62,84,3.6,AU,['dt']
464,recani,31.2846,-4.2688,285.45,18,97,1.72,MA,['dt']
465,pajapan,18.25,-94.7,294.24,85,64,2.88,MX,['dt']
466,buldana,20.5333,76.1833,292.35,50,0,1.36,IN,['dt']
467,truth or consequences,33.1284,-107.2528,287.28,19,0,1.54,US,['dt']
468,kashgar,39.4547,75.9797,271.43,45,98,0.25,CN,['dt']
469,badger,64.8,-147.5333,250.08,75,0,1.54,US,['dt']
470,lensk,60.7253,114.9278,257.44,92,100,3.99,RU,['dt']
471,horodnytsya,50.807,27.3168,268.15,96,100,3.39,UA,['dt']
472,palembang,-2.9167,104.7458,298.2,94,75,1.54,ID,['dt']
473,puerto eldorado,-26.4084,-54.6946,300.61,65,31,0.53,AR,['dt']
474,kyren,51.6828,102.1408,257.01,72,6,2.24,RU,['dt']
475,cill airne,52.05,-9.5167,277.12,85,99,0.36,IE,['dt']
476,treasure island,27.7692,-82.769,287.62,58,0,4.12,US,['dt']
477,paradsasvar,47.9126,19.9771,270.13,71,36,5.18,HU,['dt']
478,menongue,-14.6585,17.691,288.24,96,100,3.59,AO,['dt']
479,kayangel,8.0823,134.7173,301.06,79,88,11.23,PW,['dt']
480,hithadhoo,-0.6,73.0833,301.51,74,100,5.63,MV,['dt']
481,palora,-1.7,-77.9333,293.19,95,40,1.66,EC,['dt']
482,hillsborough,37.5741,-122.3794,287.28,89,100,7.72,US,['dt']
483,wuchuan,21.4571,110.7659,290.72,75,78,3.54,CN,['dt']
484,zoucheng,35.4006,116.9656,277.41,65,59,6.88,CN,['dt']
485,lae,-6.7221,146.9847,304.87,56,97,0.33,PG,['dt']
486,quarrata,43.8499,10.9807,282.14,82,75,1.03,IT,['dt']
487,villa juarez,24.6536,-107.5411,298.29,41,0,3.6,MX,['dt']
488,sitia,35.2,26.0986,284.25,61,39,12.17,GR,['dt']
489,aioun,16.6614,-9.6149,294.04,10,43,5.75,MR,['dt']
490,quelimane,-17.8786,36.8883,298.63,93,99,2.04,MZ,['dt']
491,pangody,65.85,74.4859,235.07,100,62,2.32,RU,['dt']
492,aldama,22.9167,-98.0667,295.09,69,100,2.9,MX,['dt']
493,ostersund,63.1792,14.6357,268.49,93,100,2.06,SE,['dt']
494,mejit,10.2753,170.8646,299.96,70,100,8.84,MH,['dt']
495,murmashi,68.8154,32.8115,257.38,84,40,1.0,RU,['dt']
496,shingu,33.7333,135.9833,279.33,44,1,0.55,JP,['dt']
497,jingdezhen,29.2947,117.2079,284.11,61,33,1.08,CN,['dt']
498,puerto baquerizo moreno,-0.9,-89.6,298.38,80,3,3.85,EC,['dt']
499,velikiye luki,56.34,30.5452,259.33,86,100,5.17,RU,['dt']
500,zambezi,-13.5432,23.1047,291.99,91,91,2.03,ZM,['dt']
501,ha'il,27.5219,41.6907,282.16,46,0,4.12,SA,['dt']
502,sassandra,4.95,-6.0833,299.32,85,1,1.54,CI,['dt']
503,antsiranana,-12.2787,49.2917,298.54,90,100,5.45,MG,['dt']
504,sovetskaya gavan',48.9723,140.2878,257.1,76,100,1.08,RU,['dt']
505,quezon,7.7303,125.0989,298.33,82,100,2.41,PH,['dt']
506,shaffa,10.5067,12.3332,291.94,18,2,2.53,NG,['dt']
507,hirara,24.8,125.2833,293.27,54,2,5.05,JP,['dt']
508,oban,56.4127,-5.4706,274.47,84,99,3.09,GB,['dt']
509,senillosa,-39.0,-68.4167,296.96,18,0,14.45,AR,['dt']
510,horta,38.5333,-28.6333,287.6,87,91,1.79,PT,['dt']
511,butare,-2.5967,29.7394,287.58,94,99,1.19,RW,['dt']
512,kidal,18.4411,1.4078,292.68,12,72,5.18,ML,['dt']
513,polyarnyy,69.1989,33.4478,265.82,73,100,6.86,RU,['dt']
514,kindu,-2.95,25.95,294.14,89,61,1.18,CD,['dt']
515,desaguadero,-16.5656,-69.0417,282.83,80,76,9.24,PE,['dt']
516,fauske,67.2588,15.3918,269.23,89,100,2.03,NO,['dt']
517,walvis bay,-22.9575,14.5053,290.42,92,11,2.37,NA,['dt']
518,lobujya,27.95,86.8167,260.01,23,62,2.06,NP,['dt']
519,starobaltachevo,56.0013,55.9213,248.91,99,92,3.67,RU,['dt']
520,hola,51.5377,23.1902,272.25,94,100,7.36,PL,['dt']
521,praia da vitoria,38.7333,-27.0667,287.46,91,42,8.04,PT,['dt']
522,key west,24.5557,-81.7826,294.26,88,100,8.23,US,['dt']
523,viitasaari,63.0667,25.8667,267.14,96,100,3.2,FI,['dt']
524,gobabis,-22.45,18.9667,299.51,45,98,4.74,NA,['dt']
525,sosnovo-ozerskoye,52.5249,111.5418,240.54,100,45,1.06,RU,['dt']
526,sirte,31.2089,16.5887,288.87,54,36,8.97,LY,['dt']
527,nema,57.5067,50.5011,259.03,92,100,5.04,RU,['dt']
528,guarapari,-20.6667,-40.4975,300.31,84,77,4.49,BR,['dt']
529,goz beida,13.95,20.55,292.17,15,21,3.65,TD,['dt']
530,giyani,-23.3025,30.7187,297.29,82,47,1.66,ZA,['dt']
531,kununurra,-15.7667,128.7333,301.14,94,75,2.06,AU,['dt']
532,volodarskiy,46.4013,48.5409,259.12,81,6,2.56,RU,['dt']
533,el burgo de osma,41.5862,-3.0652,279.55,69,100,0.99,ES,['dt']
534,kaa-khem,51.6833,94.7333,247.26,94,100,0.66,RU,['dt']
535,qurayyat,31.3318,37.3428,282.25,49,0,3.09,SA,['dt']
536,baki,-7.6128,110.7839,298.75,82,97,2.95,ID,['dt']
537,gizo,-8.103,156.8419,303.11,70,84,1.49,SB,['dt']
538,goulburn,-34.75,149.7167,291.36,88,100,3.13,AU,['dt']
539,linxia chengguanzhen,35.6003,103.2064,268.93,49,1,0.53,CN,['dt']
540,linden,6.0,-58.3,297.27,78,0,2.68,GY,['dt']
541,angren,41.0167,70.1436,279.53,62,88,3.37,UZ,['dt']
542,sudzha,51.1976,35.2726,258.26,96,41,4.23,RU,['dt']
543,el matama,16.7095,33.3565,294.05,17,7,4.78,SD,['dt']
544,saint-leu,-21.15,55.2833,299.63,83,100,3.27,RE,['dt']
545,maisi,43.0395,41.2621,268.69,79,100,1.05,GE,['dt']
546,kemin,42.7846,75.6892,277.28,56,94,3.49,KG,['dt']
547,dzhalagash,45.0833,64.6667,264.71,69,99,7.04,KZ,['dt']
548,la sarre,48.8002,-79.1996,262.05,93,100,6.06,CA,['dt']
549,north port,27.0442,-82.2359,290.36,51,100,4.38,US,['dt']
550,broken hill,-31.95,141.4333,302.3,37,50,8.08,AU,['dt']
551,viseu,40.661,-7.9097,284.11,98,100,1.29,PT,['dt']
552,bilibino,68.0546,166.4372,243.4,98,100,1.26,RU,['dt']
553,paciran,-6.8767,112.3761,300.33,74,97,4.48,ID,['dt']
554,aksu,41.1231,80.2644,270.65,47,100,0.81,CN,['dt']
555,cabedelo,-6.9811,-34.8339,299.52,80,25,3.98,BR,['dt']
556,greymouth,-42.4667,171.2,292.41,81,20,7.1,NZ,['dt']
557,la'ie,21.6477,-157.9253,298.13,58,11,2.24,US,['dt']
558,mansa,29.9833,75.3833,279.94,32,0,1.87,IN,['dt']
559,port hedland,-20.3167,118.5667,302.18,84,40,7.72,AU,['dt']
560,bethanie,-26.4833,17.15,296.21,39,15,3.94,NA,['dt']
561,pagar alam,-4.0167,103.2667,294.09,97,100,0.12,ID,['dt']
562,calvinia,-31.4707,19.776,291.21,66,3,2.5,ZA,['dt']
563,grand falls-windsor,48.9332,-55.6649,264.45,96,47,0.91,CA,['dt']
564,palangkaraya,-2.2,113.8333,297.5,95,100,1.01,ID,['dt']
565,yenotayevka,47.2456,47.0281,256.72,89,6,2.52,RU,['dt']
566,kaedi,16.1465,-13.5047,301.04,10,84,6.39,MR,['dt']
567,burley,42.5357,-113.7928,262.76,86,100,7.72,US,['dt']
568,florida,28.7505,-82.5001,285.37,55,0,0.0,US,['dt']
569,krasnaya gora,52.9995,31.6023,258.39,97,98,3.81,RU,['dt']
570,tatarsk,55.219,75.9828,268.04,94,100,6.86,RU,['dt']
571,kirensk,57.7853,108.1119,257.02,80,100,4.02,RU,['dt']
572,yelan'-koleno,51.1523,41.2306,248.69,97,6,2.16,RU,['dt']
573,taroa,8.7058,171.2275,300.33,76,93,9.65,MH,['dt']
574,aswan,24.0934,32.907,288.76,26,0,2.06,EG,['dt']
575,temerluh,3.4506,102.4176,297.03,99,85,0.8,MY,['dt']
576,correntina,-13.3433,-44.6367,296.48,76,79,1.92,BR,['dt']
577,san julian,21.0167,-102.1667,292.44,18,100,3.86,MX,['dt']
578,divnomorskoye,44.5011,38.1353,270.47,66,97,2.62,RU,['dt']
579,tabuk,17.4189,121.4443,293.36,85,71,0.94,PH,['dt']
580,manaure,11.7751,-72.4445,301.4,66,24,7.51,CO,['dt']
581,shimoda,34.6667,138.95,281.54,45,0,1.97,JP,['dt']
582,menaka,15.9182,2.4022,294.18,8,34,5.04,ML,['dt']
583,villa ojo de agua,-29.5,-63.6938,297.52,70,75,3.38,AR,['dt']
584,amungan,15.3652,119.9582,298.01,63,14,2.63,PH,['dt']
585,diekirch,49.8678,6.1558,273.31,77,99,0.89,LU,['dt']
586,porto velho,-8.7619,-63.9039,298.18,88,75,2.06,BR,['dt']
587,abadan,30.3392,48.3043,289.22,68,75,3.48,IR,['dt']
588,luderitz,-26.6481,15.1594,292.91,72,2,9.32,NA,['dt']
589,nishinoomote,30.7333,131.0,285.46,87,20,1.03,JP,['dt']
590,pariaman,-0.619,100.12,299.18,91,100,2.18,ID,['dt']
591,laredo,27.5064,-99.5075,293.29,48,0,5.66,US,['dt']
592,luba,3.4568,8.5547,300.36,78,95,2.29,GQ,['dt']
593,akrehamn,59.2667,5.1833,277.29,87,100,10.8,NO,['dt']
594,nadym,65.5333,72.5167,236.19,100,68,2.43,RU,['dt']
595,omarska,44.89,16.8992,267.81,90,6,1.49,BA,['dt']
596,huanggang,23.677,116.9996,287.54,56,33,1.74,CN,['dt']
